City_ID,City,Lat,Lng,Max Temp,Humidity,Cloudiness,Wind Speed,Country,Date
0,bredasdorp,-34.5322,20.0403,8.16,73,22,1.78,ZA,1722357760
1,makokou,0.5738,12.8642,24.42,68,83,1.1,GA,1722357761
2,codrington,-38.2667,141.9667,5.39,92,7,3.4,AU,1722357761
3,port elizabeth,-33.918,25.5701,13.16,65,0,7.72,ZA,1722357761
4,toliara,-23.35,43.6667,20.93,74,0,6.23,MG,1722357761
5,blackmans bay,-43.0167,147.3167,3.07,93,8,0.45,AU,1722357761
6,waitangi,-43.9535,-176.5597,8.23,98,100,2.68,NZ,1722357761
7,port augusta,-32.5,137.7667,6.66,71,19,1.34,AU,1722357761
8,kristiansund,63.1115,7.732,16.03,93,75,6.17,NO,1722357761
9,adamstown,-25.066,-130.1015,21.94,82,73,7.83,PN,1722357762
10,ancud,-41.8697,-73.8203,8.21,64,100,2.77,CL,1722357762
11,reggane,26.7158,0.1714,43.94,7,1,9.91,DZ,1722357762
12,saipan,15.1355,145.701,28.39,83,0,0.0,MP,1722357762
13,port-aux-francais,-49.35,70.2167,2.9,94,99,12.55,TF,1722357762
14,gargalianoi,37.0667,21.6333,32.42,59,2,2.78,GR,1722357762
15,selfoss,63.9331,-20.9971,11.3,76,98,4.36,IS,1722357762
16,west island,-12.1568,96.8225,26.99,69,40,5.66,CC,1722357763
17,melfort,52.8667,-104.6177,23.07,64,86,3.09,CA,1722357673
18,vernon,50.2581,-119.2691,23.12,66,70,5.36,CA,1722357763
19,tiksi,71.6872,128.8694,2.43,96,100,3.01,RU,1722357763
20,puerto natales,-51.7236,-72.4875,4.25,93,100,2.06,CL,1722357763
21,kokopo,-4.352,152.2633,25.12,86,75,4.11,PG,1722357763
22,domusnovas,39.3219,8.6486,30.25,21,1,3.42,IT,1722357763
23,punta del este,-34.9667,-54.95,13.31,51,0,5.14,UY,1722357763
24,constantia,44.1833,28.65,29.38,42,2,1.36,RO,1722357660
25,ambon,-3.6954,128.1814,27.15,95,40,1.54,ID,1722357764
26,albany,42.6001,-73.9662,31.16,71,80,2.24,US,1722357642
27,mercedes,-34.6515,-59.4307,12.75,36,36,6.58,AR,1722357764
28,udachny,66.4167,112.4,7.88,69,67,2.61,RU,1722357764
29,acarau,-2.8856,-40.12,31.28,53,18,8.05,BR,1722357674
30,qaqortoq,60.7167,-46.0333,10.8,47,0,13.68,GL,1722357764
31,santander jimenez,24.2167,-98.4667,31.59,58,0,5.94,MX,1722357764
32,la passe,45.5549,-0.8967,33.13,62,73,5.16,FR,1722357764
33,sungai raya,0.7,108.9,24.32,87,100,3.83,ID,1722357765
34,souillac,-20.5167,57.5167,22.21,68,20,0.0,MU,1722357765
35,sinabang,2.4803,96.3801,26.68,84,100,1.56,ID,1722357765
36,chanika,-5.4167,38.0167,19.32,89,38,4.25,TZ,1722357765
37,torghay,49.6339,63.4981,28.35,32,4,2.85,KZ,1722357765
38,afaahiti,-17.75,-149.2833,21.93,81,100,12.51,PF,1722357765
39,patamundai,20.5667,86.5667,29.08,80,99,3.91,IN,1722357765
40,sao raimundo nonato,-9.0153,-42.6994,34.4,19,0,4.51,BR,1722357766
41,margaret river,-33.95,115.0667,14.82,85,25,5.4,AU,1722357766
42,lebu,-37.6167,-73.65,13.53,45,100,3.25,CL,1722357766
43,newman,37.3138,-121.0208,23.13,33,0,0.99,US,1722357766
44,nar'yan-mar,67.6713,53.087,15.55,84,99,4.35,RU,1722357766
45,tocopilla,-22.092,-70.1979,18.51,71,17,2.79,CL,1722357714
46,aral,40.5156,81.2636,36.84,14,2,4.32,CN,1722357766
47,ushuaia,-54.8,-68.3,1.81,60,20,1.54,AR,1722357766
48,erzincan,39.75,39.5,27.61,39,40,8.23,TR,1722357767
49,gadzhiyevo,69.2551,33.3362,10.82,81,100,7.68,RU,1722357767
50,anadyr,64.75,177.4833,12.28,81,0,7.0,RU,1722357767
51,sinop,41.7711,34.8709,22.24,93,57,2.1,TR,1722357767
52,wailua homesteads,22.0669,-159.378,23.19,87,100,7.72,US,1722357767
53,papatowai,-46.5619,169.4708,4.44,67,84,5.46,NZ,1722357767
54,dudinka,69.4058,86.1778,18.64,51,80,4.66,RU,1722357767
55,grytviken,-54.2811,-36.5092,-3.21,61,12,2.26,GS,1722357767
56,vorgashor,67.5833,63.95,16.05,98,100,1.43,RU,1722357767
57,atafu village,-8.5421,-172.5159,27.57,77,100,10.58,TK,1722357768
58,vryburg,-26.9566,24.7284,13.0,19,80,4.01,ZA,1722357768
59,iqaluit,63.7506,-68.5145,4.85,87,100,1.54,CA,1722357768
60,zheleznodorozhnyy,55.7503,38.0042,20.36,78,91,3.05,RU,1722357768
61,timbuktu,16.7735,-3.0074,37.13,31,31,3.77,ML,1722357768
62,hawaiian paradise park,19.5933,-154.9731,22.16,97,100,2.06,US,1722357768
63,san luis de la loma,17.2706,-100.8939,29.01,77,97,1.2,MX,1722357768
64,balykshi,47.0667,51.8667,28.0,30,0,3.0,KZ,1722357769
65,georgetown,5.4112,100.3354,29.96,78,20,1.54,MY,1722357615
66,colares,38.7992,-9.4469,27.81,69,20,4.63,PT,1722357769
67,hirtshals,57.5881,9.9592,17.59,78,2,6.31,DK,1722357769
68,shanwei,22.782,115.3475,26.79,87,98,3.2,CN,1722357769
69,bethel,41.3712,-73.414,29.75,74,40,4.12,US,1722357769
70,al jawf,29.5,38.75,34.39,13,26,4.8,SA,1722357769
71,elliot lake,46.3834,-82.6331,21.94,85,100,2.0,CA,1722357769
72,zeya,53.75,127.2667,18.34,94,100,1.43,RU,1722357770
73,zaozersk,69.4005,32.4476,11.57,71,100,6.58,RU,1722357770
74,salekhard,66.53,66.6019,16.6,97,100,3.17,RU,1722357770
75,barra de santo antonio,-9.4047,-35.5072,27.6,72,3,4.38,BR,1722357770
76,bilibino,68.0546,166.4372,5.46,89,100,1.35,RU,1722357770
77,sao joao da barra,-21.6403,-41.0511,24.05,59,53,7.51,BR,1722357770
78,edinburgh of the seven seas,-37.0676,-12.3116,14.65,90,67,13.79,SH,1722357770
79,al qusayr,34.5091,36.5798,27.82,47,0,5.54,SY,1722357770
80,puerto ayora,-0.7393,-90.3518,24.98,98,100,2.24,EC,1722357770
81,dedovichi,57.5517,29.9502,16.12,92,100,2.07,RU,1722357771
82,old town,50.087,14.4202,30.15,26,0,3.09,CZ,1722357771
83,rudnya,54.947,31.0934,17.69,73,78,3.43,RU,1722357771
84,kamina,-8.7386,24.9906,23.28,16,2,2.27,CD,1722357771
85,anjozorobe,-18.4,47.8667,12.26,76,0,2.15,MG,1722357771
86,lepsy,46.235,78.9456,25.86,50,97,5.54,KZ,1722357771
87,alice springs,-23.7,133.8833,0.75,60,0,2.57,AU,1722357771
88,margate,51.3813,1.3862,25.49,63,37,5.07,GB,1722357771
89,belomorsk,64.5232,34.7668,10.48,94,98,2.1,RU,1722357772
90,thompson,55.7435,-97.8558,25.09,65,20,3.09,CA,1722357772
91,igarka,67.4667,86.5833,22.43,52,100,7.58,RU,1722357772
92,aykhal,66.0,111.5,7.21,75,5,2.8,RU,1722357772
93,invercargill,-46.4,168.35,3.34,81,12,2.68,NZ,1722357772
94,bengkulu,-3.8004,102.2655,24.59,94,93,3.01,ID,1722357772
95,wamba,8.9333,8.6,25.75,85,100,1.71,NG,1722357772
96,stanley,54.868,-1.6985,23.07,52,20,4.63,GB,1722357772
97,klyuchi,52.2667,79.1667,21.86,53,65,2.87,RU,1722357773
98,ust-nera,64.5667,143.2,6.44,96,100,4.17,RU,1722357773
99,susuman,62.7833,148.1667,11.5,67,100,4.96,RU,1722357773
100,rawson,-43.3002,-65.1023,13.45,26,39,1.75,AR,1722357773
101,kimovsk,53.9716,38.5319,16.57,86,60,3.89,RU,1722357773
102,buritis,-15.6178,-46.4233,31.91,21,0,2.73,BR,1722357615
103,tenenkou,14.4572,-4.9169,33.92,41,17,5.21,ML,1722357773
104,abepura,-2.6333,140.5833,24.45,94,40,1.03,ID,1722357773
105,ilulissat,69.2167,-51.1,7.01,76,75,2.57,GL,1722357773
106,hadibu,12.65,54.0333,26.23,80,84,7.89,YE,1722357774
107,tralee,52.2704,-9.7026,21.14,64,0,3.09,IE,1722357774
108,vilyuchinsk,52.9306,158.4028,11.15,97,100,0.44,RU,1722357774
109,verkhnyaya khava,51.8404,39.9413,19.04,80,76,3.13,RU,1722357774
110,chonchi,-42.6128,-73.8092,9.51,77,100,1.52,CL,1722357774
111,coudekerque-branche,51.0229,2.3936,24.99,57,20,4.12,FR,1722357774
112,el nido,11.1858,119.3956,26.75,97,56,0.48,PH,1722357774
113,portland,45.5234,-122.6762,21.85,79,75,3.09,US,1722357256
114,port alfred,-33.5906,26.891,12.88,68,42,2.24,ZA,1722357774
115,port lincoln,-34.7333,135.8667,10.86,51,70,4.55,AU,1722357775
116,kingston,17.997,-76.7936,32.53,62,20,8.75,JM,1722357619
117,yucca valley,34.1142,-116.4322,30.83,13,0,2.24,US,1722357775
118,rudnichnyy,59.617,52.4703,15.44,78,60,0.37,RU,1722357775
119,vorkuta,67.5,64.0,16.05,97,100,1.27,RU,1722357775
120,olney,39.1532,-77.0669,28.58,78,100,3.09,US,1722357775
121,teteven,42.9167,24.2667,22.95,48,2,2.26,BG,1722357775
122,remire-montjoly,4.9167,-52.2667,32.02,66,75,5.14,GF,1722357775
123,villa gesell,-37.2639,-56.973,10.42,55,100,8.34,AR,1722357694
124,umba,66.6871,34.3429,14.93,69,92,5.08,RU,1722357776
125,hithadhoo,-0.6,73.0833,28.91,75,100,4.04,MV,1722357776
126,nova sintra,14.8667,-24.7167,25.13,76,86,6.09,CV,1722357776
127,kapa'a,22.0752,-159.319,23.94,85,100,7.72,US,1722357776
128,kodinsk,58.6881,99.1844,19.4,74,100,2.59,RU,1722357776
129,isafjordur,66.0755,-23.124,9.02,93,100,1.54,IS,1722357776
130,carnarvon,-24.8667,113.6333,18.74,83,0,5.63,AU,1722357776
131,yeppoon,-23.1333,150.7333,9.03,72,20,5.23,AU,1722357776
132,avarua,-21.2078,-159.775,20.03,49,40,3.6,CK,1722357776
133,utrik,11.2278,169.8474,27.73,81,54,5.99,MH,1722357777
134,santo antonio do ica,-3.1022,-67.9397,34.16,38,94,1.86,BR,1722357777
135,malango,-2.9627,119.9001,18.48,99,73,1.15,ID,1722357777
136,kollam,8.8833,76.6,24.64,90,85,5.56,IN,1722357777
137,uturoa,-16.7333,-151.4333,23.79,61,99,11.23,PF,1722357777
138,hasaki,35.7333,140.8333,26.27,86,62,2.32,JP,1722357777
139,lagos,6.5833,3.75,29.18,75,83,4.27,NG,1722357373
140,mili,6.0815,171.735,27.69,79,99,3.79,MH,1722357778
141,luderitz,-26.6481,15.1594,13.2,75,0,10.82,NA,1722357778
142,dabou,5.3256,-4.3769,24.72,79,81,4.18,CI,1722357778
143,ghormach,35.7306,63.7826,31.03,20,0,3.75,AF,1722357778
144,thoen,17.6129,99.2161,23.85,99,100,0.74,TH,1722357778
145,az zuwaytinah,30.9522,20.1202,27.49,79,0,8.97,LY,1722357778
146,karratha,-20.7377,116.8463,21.62,53,4,3.65,AU,1722357778
147,port mathurin,-19.6833,63.4167,22.49,70,17,7.93,MU,1722357778
148,coquimbo,-29.9533,-71.3436,11.1,87,100,2.97,CL,1722357703
149,san patricio,28.017,-97.5169,32.17,55,11,7.58,US,1722357779
150,asadabad,34.7824,48.1185,32.97,16,0,2.52,IR,1722357779
151,east london,-33.0153,27.9116,13.52,54,0,4.63,ZA,1722357779
152,praia da vitoria,38.7333,-27.0667,27.14,69,40,3.91,PT,1722357779
153,boende,-0.2167,20.8667,29.26,44,76,0.31,CD,1722357779
154,cabo san lucas,22.8909,-109.9124,34.61,40,0,2.06,MX,1722357495
155,pisco,-13.7,-76.2167,17.23,77,100,3.6,PE,1722357779
156,badger,64.8,-147.5333,11.66,89,75,3.09,US,1722357779
157,kone,-21.0595,164.8658,18.91,82,96,1.8,NC,1722357779
158,autazes,-3.5797,-59.1306,37.96,22,38,2.6,BR,1722357780
159,baki,-7.6128,110.7839,22.64,89,2,2.54,ID,1722357780
160,darab,28.7519,54.5444,35.67,28,100,3.62,IR,1722357780
161,tolanaro,-25.0319,46.9987,22.04,78,75,0.0,MG,1722357780
162,marsabit,2.3284,37.9899,21.54,49,99,8.69,KE,1722357780
163,antonio enes,-16.2325,39.9086,21.95,74,1,3.35,MZ,1722357780
164,roschinskiy,53.2669,40.0039,15.19,89,100,1.53,RU,1722357780
165,boali,4.8005,18.1275,24.52,87,86,1.81,CF,1722357781
166,bonthe,7.5264,-12.505,25.02,81,99,5.03,SL,1722357781
167,wynyard,-41.0,145.7167,7.01,86,68,2.11,AU,1722357781
168,manokwari,-0.8667,134.0833,25.67,81,32,1.29,ID,1722357781
169,mount pearl,47.5166,-52.7813,28.03,69,75,11.32,CA,1722357539
170,hermanus,-34.4187,19.2345,9.33,63,11,2.49,ZA,1722357781
171,namibe,-15.1961,12.1522,18.23,82,25,4.17,AO,1722357781
172,suva,-18.1416,178.4415,18.71,100,40,2.57,FJ,1722357781
173,prince rupert,54.3161,-130.3201,14.05,98,100,5.66,CA,1722357782
174,puerto baquerizo moreno,-0.9,-89.6,22.55,78,40,6.17,EC,1722357608
175,swift current,50.2834,-107.8014,20.45,60,0,5.66,CA,1722357782
176,smarhon,54.4791,26.3934,18.23,80,18,5.49,BY,1722357782
177,prieska,-29.6641,22.7474,10.19,28,0,3.33,ZA,1722357782
178,trairi,-3.2778,-39.2689,29.33,57,23,6.61,BR,1722357746
179,darchula,29.8412,80.5287,18.5,98,95,0.39,NP,1722357782
180,la mira,18.035,-102.3266,29.25,69,100,3.94,MX,1722357782
181,singkil,-7.9855,111.4161,22.32,95,4,1.96,ID,1722357783
182,fomboni,-12.28,43.7425,25.68,64,0,4.99,KM,1722357783
183,manado,1.487,124.8455,23.43,94,20,0.51,ID,1722357783
184,uglegorsk,49.0833,142.0333,14.01,93,79,0.5,RU,1722357783
185,weno,7.4515,151.8468,26.97,83,40,2.06,FM,1722357783
186,neiafu,-18.65,-173.9833,24.38,78,75,5.66,TO,1722357783
187,carutapera,-1.195,-46.02,31.56,52,25,5.74,BR,1722357783
188,hammerfest,70.6634,23.6821,11.25,100,75,4.12,NO,1722357783
189,fukuecho,32.6881,128.8419,28.24,83,0,4.51,JP,1722357783
190,tieling,42.2931,123.8414,23.44,94,79,2.6,CN,1722357552
191,katsuren-haebaru,26.3369,127.8719,29.21,87,0,2.06,JP,1722357784
192,duong dong,10.2167,103.9667,26.0,94,40,0.0,VN,1722357784
193,matamey,13.4231,8.4749,34.05,39,74,6.22,NE,1722357784
194,salalah,17.0151,54.0924,25.05,100,100,1.54,OM,1722357784
195,tirlyanskiy,54.2109,58.5806,16.28,89,100,2.9,RU,1722357784
196,kodiak,57.79,-152.4072,11.73,71,20,3.09,US,1722357785
197,uxbridge,42.0773,-71.6295,30.29,80,84,4.49,US,1722357654
198,olonkinbyen,70.9221,-8.7187,5.45,99,100,3.71,SJ,1722357785
199,st. john's,47.5649,-52.7093,28.49,67,75,11.32,CA,1722357785
200,broome,42.2506,-75.833,29.25,67,75,5.14,US,1722357785
201,weyburn,49.6668,-103.8511,29.12,26,27,2.57,CA,1722357778
202,bir hadaj,31.0263,34.7031,29.1,47,0,4.76,IL,1722357786
203,fedorovka,53.6314,62.7078,18.89,91,82,3.48,KZ,1722357674
204,basoda,23.85,77.9333,25.62,87,100,2.42,IN,1722357786
205,itupiranga,-5.1347,-49.3267,38.18,24,4,1.66,BR,1722357786
206,yellowknife,62.456,-114.3525,20.29,81,20,3.09,CA,1722357786
207,cannonvale,-20.2833,148.7,17.66,71,52,6.98,AU,1722357786
208,mejit,10.2753,170.8646,27.73,81,96,6.63,MH,1722357786
209,touros,-5.1989,-35.4608,28.22,67,4,8.22,BR,1722357786
210,smithers,54.7804,-127.1743,16.18,77,100,0.0,CA,1722357786
211,keflavik,64.0049,-22.5624,11.24,82,75,5.66,IS,1722357787
212,cooper's town,26.8667,-77.5167,28.97,72,98,5.2,BS,1722357787
213,talnakh,69.4865,88.3972,19.89,45,15,2.07,RU,1722357787
214,general pico,-35.6566,-63.7568,13.55,34,100,8.95,AR,1722357787
215,cosne-cours-sur-loire,47.3333,3.1667,35.34,63,90,1.89,FR,1722357787
216,eydhafushi,5.1033,73.0708,28.35,84,100,5.21,MV,1722357787
217,lorengau,-2.0226,147.2712,27.53,82,13,4.56,PG,1722357787
218,nazyvayevsk,55.5698,71.3529,14.92,90,37,3.05,RU,1722357787
219,vadso,70.0744,29.7487,16.09,55,0,6.69,NO,1722357787
220,raton,36.9034,-104.4391,28.19,29,0,3.09,US,1722357788
221,cooma,-36.2333,149.1333,-0.09,95,20,1.71,AU,1722357788
222,nenjiang,49.1833,125.2167,21.48,78,75,2.39,CN,1722357553
223,ola,59.5833,151.2833,10.64,82,100,1.57,RU,1722357788
224,gaiman,-43.2897,-65.4929,14.55,16,47,3.31,AR,1722357788
225,yuzhno-kurilsk,44.0306,145.8556,13.99,97,87,8.23,RU,1722357788
226,bom jesus,-9.0744,-44.3586,36.26,19,0,4.31,BR,1722357788
227,santo antonio,-6.3106,-35.4789,28.48,61,66,6.29,BR,1722357545
228,joshimath,30.5667,79.5667,19.94,98,100,0.99,IN,1722357788
229,vuktyl,63.8567,57.3094,17.78,70,52,2.37,RU,1722357789
230,senanga,-16.1167,23.2667,22.45,12,27,0.77,ZM,1722357789
231,al marj,32.488,20.8317,26.9,62,0,5.72,LY,1722357789
232,petropavlovsk-kamchatsky,53.0452,158.6483,10.33,100,100,2.0,RU,1722357789
233,trinidad,-14.8333,-64.9,25.99,38,44,3.6,BO,1722357789
234,mount gambier,-37.8333,140.7667,3.58,86,50,2.43,AU,1722357789
235,fontanelas,38.8472,-9.4372,27.16,69,20,4.63,PT,1722357789
236,al bawiti,28.3492,28.8659,33.89,18,0,4.27,EG,1722357789
237,college,64.8569,-147.8028,11.71,89,75,3.09,US,1722357789
238,guane,22.2025,-84.0875,33.89,47,41,4.29,CU,1722357790
239,longyearbyen,78.2186,15.6401,9.91,81,75,1.54,SJ,1722357790
240,vila franca do campo,37.7167,-25.4333,26.23,64,34,3.29,PT,1722357790
241,punta arenas,-53.15,-70.9167,2.06,75,0,1.03,CL,1722357790
242,griffith,41.5284,-87.4237,30.7,67,0,2.57,US,1722357790
243,bemidji,47.4736,-94.8803,24.05,69,0,3.09,US,1722357790
244,makushino,55.2103,67.2442,16.21,88,79,3.43,RU,1722357791
245,yaring,6.8662,101.3689,26.4,85,100,1.88,TH,1722357791
246,ad darb,17.7229,42.2526,35.45,37,86,3.03,SA,1722357791
247,opp,31.2827,-86.2555,33.68,70,0,3.6,US,1722357791
248,naryn,41.4287,75.9911,18.56,52,87,2.73,KG,1722357791
249,sitka,57.0531,-135.33,13.94,94,100,4.63,US,1722357791
250,guia,28.1397,-15.6329,25.07,78,33,5.91,ES,1722357791
251,tafuna,-14.3358,-170.72,25.57,59,26,12.18,AS,1722357791
252,ebon,4.582,168.6964,28.05,78,99,3.58,MH,1722357792
253,ugoofaaru,5.6667,73.0,28.47,84,100,4.55,MV,1722357792
254,kirakira,-10.4544,161.9205,25.05,86,51,3.6,SB,1722357792
255,mariinsk,56.2139,87.7472,16.14,90,99,1.12,RU,1722357792
256,fallon,39.4735,-118.7774,26.73,30,10,2.75,US,1722357792
257,kerikeri,-35.2268,173.9474,10.19,96,48,1.42,NZ,1722357792
258,martapura,-3.4167,114.85,25.05,100,100,3.09,ID,1722357792
259,naze,28.3667,129.4833,26.51,84,20,3.06,JP,1722357792
260,roma,43.2128,-75.4557,31.07,67,75,3.09,US,1722357792
261,zapolyarnyy,69.4154,30.8136,13.6,67,97,7.23,RU,1722357793
262,jamestown,42.097,-79.2353,26.97,76,75,3.13,US,1722357522
263,flying fish cove,-10.4217,105.6791,24.82,88,100,5.14,CX,1722357793
264,mount isa,-20.7333,139.5,10.87,30,0,3.6,AU,1722357793
265,uberaba,-19.7483,-47.9319,28.32,32,20,4.63,BR,1722357561
266,kokshetau,53.2775,69.3883,19.37,72,94,3.48,KZ,1722357793
267,saint-julien-les-villas,48.2667,4.1,35.98,30,0,1.54,FR,1722357793
268,licheng,23.2955,113.8284,25.62,92,96,2.1,CN,1722357793
269,antsiranana,-12.2787,49.2917,22.87,67,20,6.99,MG,1722357793
270,forster,-32.1667,152.5167,9.65,94,99,6.32,AU,1722357794
271,chelsea,51.4875,-0.1694,31.2,42,0,6.17,GB,1722357794
272,geraldton,-28.7667,114.6,14.23,94,40,4.12,AU,1722357794
273,cacapava do sul,-30.5122,-53.4914,14.4,68,13,5.16,BR,1722357794
274,oranjemund,-28.55,16.4333,12.36,86,0,10.77,NA,1722357794
275,magistral'nyy,56.1725,107.4458,15.09,73,18,2.23,RU,1722357794
276,galveston,29.3669,-94.9669,33.36,77,100,5.66,US,1722357544
277,enoch,37.7733,-113.0244,28.04,14,0,3.09,US,1722357794
278,whitehorse,60.7161,-135.0538,13.94,66,75,5.14,CA,1722357794
279,callaway,30.153,-85.5699,33.44,66,75,3.09,US,1722357795
280,aldama,22.9167,-98.0667,30.44,67,31,3.5,MX,1722357795
281,suntar,62.1444,117.6319,7.32,81,34,2.12,RU,1722357795
282,tual,-5.6667,132.75,25.54,85,44,9.05,ID,1722357795
283,nouadhibou,20.931,-17.0347,23.99,73,28,8.23,MR,1722357795
284,lycksele,64.5954,18.6735,17.46,77,75,0.51,SE,1722357752
285,midvagur,62.0511,-7.1939,13.46,82,40,6.17,FO,1722357795
286,enewetak,11.3474,162.3373,28.26,73,97,2.03,MH,1722357796
287,rongelap,11.1635,166.8941,28.11,77,85,5.93,MH,1722357796
288,ribeira grande,38.5167,-28.7,27.22,65,20,8.75,PT,1722357796
289,ljusdal,61.8288,16.0913,22.92,46,57,0.76,SE,1722357796
290,grand-bassam,5.2118,-3.7388,25.98,77,69,4.21,CI,1722357796
291,massakory,12.996,15.7293,30.51,56,94,4.58,TD,1722357796
292,as sulayyil,20.4607,45.5779,41.14,11,42,4.37,SA,1722357796
293,toulepleu guere,6.574,-8.4259,24.59,94,79,1.58,CI,1722357796
294,xining,36.6167,101.7667,12.69,75,60,1.52,CN,1722357796
295,san juan de miraflores,-12.1629,-76.9635,21.04,78,59,4.32,PE,1722357797
296,mhamid,29.82,-5.72,43.92,8,21,3.96,MA,1722357797
297,hamilton,39.1834,-84.5333,29.58,73,75,2.57,US,1722357548
298,tera,14.0078,0.7531,34.99,38,74,5.18,NE,1722357797
299,skeldon,5.8833,-57.1333,32.84,48,41,2.27,GY,1722357797
300,plouzane,48.3833,-4.6167,24.1,62,0,4.63,FR,1722357797
301,nicoya,10.1483,-85.452,30.5,68,63,4.01,CR,1722357797
302,arraial do cabo,-22.9661,-42.0278,20.98,88,100,5.14,BR,1722357797
303,illizi,26.4833,8.4667,38.89,11,0,7.43,DZ,1722357797
304,pariaman,-0.619,100.12,23.03,85,96,2.06,ID,1722357798
305,san antonio de pale,-1.4014,5.6325,22.51,77,36,5.69,GQ,1722357798
306,saldanha,-33.0117,17.9442,12.03,65,0,9.22,ZA,1722357798
307,iskateley,67.6803,53.1512,15.85,83,99,4.37,RU,1722357798
308,kutum,14.2,24.6667,25.88,63,71,4.03,SD,1722357798
309,nuuk,64.1835,-51.7216,5.34,75,75,5.66,GL,1722357798
310,kulhudhuffushi,6.6221,73.07,28.49,82,100,5.7,MV,1722357798
311,merizo village,13.2658,144.6691,27.85,81,86,0.28,GU,1722357798
312,fort bragg,35.139,-79.006,30.93,71,40,2.57,US,1722357799
313,inirida,3.8653,-67.9239,28.07,76,100,1.75,CO,1722357799
314,bovalino,38.149,16.174,32.94,56,0,1.95,IT,1722357799
315,choibalsan,48.0667,114.5,20.81,68,100,2.68,MN,1722357799
316,carloforte,39.145,8.3058,26.52,75,10,5.36,IT,1722357799
317,homer,59.6425,-151.5483,11.94,81,75,2.06,US,1722357660
318,ormond-by-the-sea,29.3491,-81.0665,33.38,64,0,2.24,US,1722357799
319,ratnagiri,16.9833,73.3,26.86,85,85,6.59,IN,1722357799
320,pacific grove,36.6177,-121.9166,18.57,88,40,3.6,US,1722357799
321,ghat,24.9647,10.1728,36.11,10,0,7.39,LY,1722357800
322,sarh,9.1429,18.3923,26.95,78,20,5.14,TD,1722357800
323,kermanshah,34.3142,47.065,34.5,6,0,5.14,IR,1722357504
324,angel r. cabada,18.5833,-95.4333,30.31,68,94,3.35,MX,1722357800
325,jaicos,-7.3592,-41.1378,35.59,19,0,4.11,BR,1722357800
326,sydney mines,46.2367,-60.2177,27.81,66,75,3.6,CA,1722357800
327,fort mcmurray,56.7268,-111.381,19.77,63,0,1.54,CA,1722357659
328,lishui,28.4604,119.9103,24.72,99,6,1.21,CN,1722357800
329,as suki,13.3167,33.8833,29.35,61,99,5.26,SD,1722357800
330,nemuro,43.3236,145.575,14.82,94,53,5.93,JP,1722357801
331,brisas de zicatela,15.8369,-97.0419,31.29,74,75,3.09,MX,1722357801
332,vysokovsk,56.3167,36.55,15.5,89,72,2.45,RU,1722357801
333,sao miguel,-5.4667,-35.3667,30.43,70,25,8.92,BR,1722357801
334,pontianak,-0.0333,109.3333,25.99,94,100,1.54,ID,1722357784
335,wanxian,30.8039,108.3897,24.55,94,100,0.37,CN,1722357801
336,brandon,27.9378,-82.2859,34.03,72,0,2.57,US,1722357573
337,la'ie,21.6477,-157.9253,23.95,88,100,4.47,US,1722357802
338,pandan,14.0453,124.1694,26.33,85,54,2.15,PH,1722357802
339,freetown,8.484,-13.2299,26.84,83,75,3.6,SL,1722357802
340,oboyan',51.2098,36.2792,18.69,68,26,4.84,RU,1722357802
341,nalut,30.3333,10.85,34.78,14,0,8.63,LY,1722357802
342,paulo afonso,-9.4061,-38.2147,33.16,35,40,3.6,BR,1722357689
343,jwaneng,-24.6004,24.7303,13.96,21,10,1.27,BW,1722357802
344,hebi,35.8992,114.1925,25.46,92,100,2.7,CN,1722357802
345,chavusy,53.8075,30.9712,18.35,78,52,6.75,BY,1722357802
346,vilyuysk,63.7553,121.6247,11.71,52,100,3.79,RU,1722357803
347,aasiaat,68.7098,-52.8699,3.06,89,100,1.42,GL,1722357803
348,parras de la fuente,25.4167,-102.1833,28.02,36,6,2.56,MX,1722357803
349,rawai,7.7797,98.3253,28.88,94,100,2.57,TH,1722357803
350,chinde,26.8212,87.7095,26.29,86,63,1.48,NP,1722357803
351,choix,26.7092,-108.3219,34.24,42,5,1.79,MX,1722357803
352,shiguai,40.7058,110.2856,16.48,95,38,0.62,CN,1722357803
353,san jose del guaviare,2.5729,-72.6459,24.69,82,100,1.06,CO,1722357803
354,kumylzhenskaya,49.8809,42.5898,23.32,39,26,4.59,RU,1722357803
355,los palmitos,9.379,-75.2677,31.47,64,77,2.47,CO,1722357804
356,maba,24.6841,113.5984,25.32,94,94,0.91,CN,1722357804
357,balkashino,52.5167,68.7667,19.5,62,97,1.92,KZ,1722357804
358,taseyevo,57.2169,94.8978,18.28,97,91,0.98,RU,1722357804
359,taltal,-25.4,-70.4833,16.51,66,25,2.07,CL,1722357804
360,zinjibar,13.1287,45.3807,29.1,77,94,4.02,YE,1722357804
361,ciudad lazaro cardenas,17.9583,-102.2,28.47,77,100,3.77,MX,1722357804
362,polyarnyy,69.1989,33.4478,10.72,80,100,7.78,RU,1722357804
363,egilsstadir,65.2653,-14.3948,16.12,59,94,0.36,IS,1722357804
364,longboat key,27.4125,-82.659,33.9,57,0,3.6,US,1722357661
365,muang khong,14.1167,105.85,23.75,98,100,0.66,LA,1722357805
366,skowhegan,44.7651,-69.7192,25.73,88,98,3.66,US,1722357805
367,budva,42.2864,18.84,34.14,37,0,2.06,ME,1722357805
368,sur,22.5667,59.5289,31.78,53,100,4.53,OM,1722357805
369,puerto deseado,-47.7503,-65.8938,5.59,82,100,4.88,AR,1722357805
370,nabire,-3.3667,135.4833,24.8,93,98,1.15,ID,1722357805
371,suriapet,17.15,79.6167,27.86,73,99,4.09,IN,1722357805
372,katsuura,35.1333,140.3,25.92,93,66,2.0,JP,1722357805
373,muli,2.9167,73.5667,28.66,76,100,4.21,MV,1722357806
374,gole,52.4,19.0967,22.8,49,4,3.2,PL,1722357806
375,socorro,31.6546,-106.3033,33.56,33,40,5.14,US,1722357806
376,saint-pierre,-21.3393,55.4781,19.82,68,0,1.54,RE,1722357806
377,lospalos,-8.5186,127.0025,21.75,93,57,3.22,TL,1722357806
378,buctzotz,21.2,-88.7833,34.51,42,99,3.6,MX,1722357806
379,fuerte olimpo,-21.0415,-57.8738,29.16,41,68,0.36,PY,1722357806
380,porto novo,6.4965,2.6036,26.9,73,99,5.27,BJ,1722357807
381,ternate,0.8,127.4,26.38,80,43,1.79,ID,1722357807
382,shangzhi,45.2167,127.9667,21.15,93,99,0.9,CN,1722357807
383,jinchang,38.4953,102.1739,26.38,28,5,3.9,CN,1722357807
384,takaungu,-3.6837,39.8566,23.65,80,77,5.09,KE,1722357807
385,monticello,45.3055,-93.7941,28.25,83,100,2.57,US,1722357532
386,taskopru,41.5098,34.2141,19.11,73,15,2.29,TR,1722357807
387,bardai,11.65,7.2333,26.77,70,81,3.74,NG,1722357807
388,guayaramerin,-10.8368,-65.3614,28.03,47,2,4.12,BO,1722357807
389,kaa-khem,51.6833,94.7333,20.47,69,100,1.55,RU,1722357808
390,isangel,-19.55,169.2667,21.34,83,71,2.07,VU,1722357808
391,porto tolle,44.9497,12.3245,28.28,51,0,3.78,IT,1722357808
392,buka,40.8108,69.1986,27.57,23,7,2.58,UZ,1722357808
393,urumqi,43.801,87.6005,30.53,35,20,6.0,CN,1722357808
394,khorugh,37.4897,71.553,19.15,40,44,2.69,TJ,1722357808
395,new norfolk,-42.7826,147.0587,3.73,97,9,1.01,AU,1722357808
396,marshfield,44.6689,-90.1718,27.59,74,0,2.57,US,1722357809
397,neryungri,56.6709,124.6491,12.49,97,100,2.98,RU,1722357809
398,zarichne,51.8126,26.129,20.52,62,19,3.08,UA,1722357809
399,mineiros,-17.5694,-52.5511,31.11,19,0,1.83,BR,1722357809
400,karelichy,53.5653,26.1378,18.93,72,16,6.07,BY,1722357809
401,buzuluk,52.7807,52.2635,19.74,84,100,3.37,RU,1722357809
402,chaohu,31.6,117.8667,28.92,76,8,2.07,CN,1722357809
403,bayanhongor,46.7167,100.1167,10.94,72,51,0.48,MN,1722357809
404,ritchie,-29.038,24.6028,11.56,21,8,5.05,ZA,1722357809
405,santyoku,37.4406,129.1708,25.7,88,79,3.82,KR,1722357809
406,ibstock,52.6855,-1.3997,27.21,51,20,2.06,GB,1722357810
407,keetmanshoop,-26.5833,18.1333,17.51,23,0,5.14,NA,1722357810
408,ribeira brava,32.65,-17.0667,27.23,76,77,2.77,PT,1722357810
409,bhamo,24.2667,97.2333,24.0,100,100,0.38,MM,1722357810
410,taroa,8.7058,171.2275,28.23,77,100,5.48,MH,1722357810
411,samana,19.2056,-69.3369,31.12,70,75,3.09,DO,1722357810
412,serdar,38.9764,56.2757,30.06,36,0,5.4,TM,1722357810
413,kavaratti,10.5669,72.642,27.24,88,100,7.0,IN,1722357810
414,hanceville,34.0607,-86.7675,32.95,55,11,3.08,US,1722357811
415,huai yot,7.7893,99.6348,24.92,90,99,0.65,TH,1722357689
416,tazovsky,67.4667,78.7,16.5,97,100,4.01,RU,1722357811
417,preobrazheniye,42.9019,133.9064,17.95,91,95,0.53,RU,1722357811
418,singapore,1.2897,103.8501,28.97,75,75,4.63,SG,1722357672
419,jayapura,-2.5333,140.7,24.66,94,39,1.91,ID,1722357811
420,happy valley-goose bay,53.3168,-60.3315,22.17,64,75,6.69,CA,1722357811
421,garissa,-0.4536,39.6401,28.19,39,91,10.35,KE,1722357811
422,fale old settlement,-9.3852,-171.2468,27.21,76,100,10.53,TK,1722357812
423,bathsheba,13.2167,-59.5167,30.34,74,20,3.6,BB,1722357812
424,port macquarie,-31.4333,152.9167,11.15,79,87,0.89,AU,1722357812
425,amanganj,24.4333,80.0333,29.18,76,100,2.76,IN,1722357812
426,tateyama,34.9833,139.8667,27.28,90,92,2.18,JP,1722357812
427,novaya igirma,57.1334,103.9112,18.09,67,73,1.97,RU,1722357812
428,east ballina,-28.8667,153.5833,6.56,83,19,5.69,AU,1722357812
429,wanning,18.8003,110.3967,26.08,88,100,4.36,CN,1722357812
430,ghanzi,-21.5667,21.7833,17.38,28,14,1.55,BW,1722357797
431,ghadamis,30.1337,9.5007,36.55,11,0,6.38,LY,1722357813
432,kameshkovo,56.3481,41.0047,16.19,93,100,2.53,RU,1722357813
433,paraty,-23.2178,-44.7131,19.23,98,100,1.37,BR,1722357813
434,syktyvkar,61.6764,50.8099,19.85,77,75,1.0,RU,1722357813
435,huntsville,34.7304,-86.5861,32.43,73,75,5.14,US,1722357813
436,chilecito,-29.1619,-67.4974,14.76,32,70,2.91,AR,1722357813
437,masaka,-0.3338,31.7341,22.12,63,88,3.23,UG,1722357814
438,khanbari,27.3747,87.2039,25.83,95,76,0.59,NP,1722357814
439,lihue,21.9789,-159.3672,23.53,89,100,7.72,US,1722357526
440,heunghae,36.1125,129.3522,26.36,78,0,3.48,KR,1722357814
441,cukai,4.25,103.4167,23.97,88,82,1.08,MY,1722357814
442,callao,-12.0667,-77.15,21.9,80,48,4.01,PE,1722357715
443,horta,38.5333,-28.6333,26.8,65,20,8.75,PT,1722357814
444,nerchinsk,51.9833,116.5833,17.39,93,74,1.19,RU,1722357814
445,severo-yeniseyskiy,60.3725,93.0408,15.24,95,87,0.75,RU,1722357814
446,nova vicosa,-17.8919,-39.3719,26.92,63,0,4.44,BR,1722357815
447,palasa,18.7667,84.4167,28.28,85,100,2.04,IN,1722357815
448,velyka bahachka,49.7912,33.7226,23.79,39,100,6.6,UA,1722357815
449,sansanne-mango,10.3592,0.4708,28.28,71,99,2.68,TG,1722357815
450,cockburn town,21.4612,-71.1419,28.45,80,88,8.38,TC,1722357815
451,puerto quijarro,-17.7833,-57.7667,33.03,31,5,1.27,BO,1722357815
452,dolores,-36.3132,-57.6792,12.14,43,100,6.89,AR,1722357815
453,zharkent,44.1628,80.0,29.74,33,5,3.6,KZ,1722357815
454,pontevedra,42.431,-8.6444,31.44,53,4,1.92,ES,1722357713
455,crane,31.3974,-102.3501,30.64,50,1,8.25,US,1722357816
456,bude,50.8243,-4.5413,25.58,66,67,0.89,GB,1722357816
457,olyokminsk,60.3736,120.4264,10.09,72,3,1.86,RU,1722357816
458,kendari,-3.945,122.4989,23.44,95,19,0.45,ID,1722357816
459,bereznik,62.8551,42.7072,17.38,81,35,1.39,RU,1722357816
460,masterton,-40.9597,175.6575,8.27,95,100,4.34,NZ,1722357816
461,hirwaun,51.7392,-3.5103,26.4,69,91,0.52,GB,1722357816
462,nikolayevsk-on-amure,53.1406,140.73,9.73,95,9,0.96,RU,1722357816
463,brokopondo,4.75,-55.1667,30.23,51,26,0.72,SR,1722357817
464,naliya,23.2667,68.8333,28.87,84,61,6.34,IN,1722357817
465,nguigmi,14.2495,13.1092,37.08,27,33,5.62,NE,1722357817
466,tannum sands,-23.9504,151.3693,13.19,62,30,3.09,AU,1722357817
467,turan,16.0678,108.2208,29.99,66,40,2.57,VN,1722357817
468,tura,25.5198,90.2201,25.37,92,79,2.86,IN,1722357817
469,tsiombe,-25.3,45.4833,18.4,69,26,3.04,MG,1722357817
470,novodvinsk,64.4165,40.8122,13.86,88,96,1.67,RU,1722357817
471,izhevsk,56.85,53.2333,15.49,95,100,1.47,RU,1722357611
472,talcahuano,-36.7167,-73.1167,10.82,66,0,2.57,CL,1722357546
473,guntur,16.3,80.45,29.94,66,85,3.83,IN,1722357818
474,kavieng,-2.5744,150.7967,27.73,80,16,7.99,PG,1722357818
475,howrah,22.5892,88.3103,30.0,89,40,3.6,IN,1722357818
476,chibougamau,49.9168,-74.3659,28.79,39,0,2.06,CA,1722357818
477,lazaro cardenas,17.9583,-102.2,28.47,77,100,3.77,MX,1722357804
478,nizhniy kuranakh,58.8353,125.4869,10.12,94,49,0.42,RU,1722357818
479,mastic beach,40.7668,-72.8521,28.4,82,75,7.72,US,1722357818
480,richards bay,-28.783,32.0377,18.78,56,69,6.13,ZA,1722357818
481,mora,11.0461,14.1401,25.99,74,97,2.66,CM,1722357819
482,mukalla,14.5425,49.1242,30.91,62,100,3.52,YE,1722357819
483,al bardiyah,31.7561,25.0865,28.98,53,0,5.72,LY,1722357819
484,farafangana,-22.8167,47.8333,21.03,83,4,2.6,MG,1722357819
485,rudsar,37.1376,50.288,24.99,89,65,1.16,IR,1722357819
486,usinsk,65.9939,57.5281,18.24,80,100,4.16,RU,1722357819
487,timaru,-44.4,171.25,4.71,76,100,3.31,NZ,1722357819
488,kuqa,41.7278,82.9364,35.52,20,57,2.09,CN,1722357819
489,retreat,38.8245,-85.8533,30.77,52,14,3.31,US,1722357819
490,kargil,34.5667,76.1,18.36,47,100,2.15,IN,1722357820
491,gumdag,39.2061,54.5906,29.74,48,0,5.51,TM,1722357820
492,sukumo,32.9333,132.7333,24.62,92,0,3.27,JP,1722357820
493,raub,3.7899,101.857,24.84,99,74,0.05,MY,1722357820
494,al ghayzah,16.2079,52.176,25.39,89,100,8.63,YE,1722357820
495,halabjah,35.1778,45.9861,33.92,20,0,2.01,IQ,1722357820
496,niafunke,15.9322,-3.9906,36.23,32,15,3.91,ML,1722357820
497,pangody,65.85,74.4859,19.86,76,98,1.88,RU,1722357821
498,pokhara,28.2333,83.9833,23.16,95,78,1.06,NP,1722357821
499,kidal,18.4411,1.4078,34.5,37,70,4.89,ML,1722357821
500,chimore,-16.9833,-65.1333,23.7,53,71,1.44,BO,1722357821
501,colonia,50.9333,6.95,32.36,34,0,1.03,DE,1722357821
502,alofi,-19.0595,-169.9187,20.94,64,75,7.2,NU,1722357821
503,kovvur,17.0167,81.7333,29.14,84,40,2.57,IN,1722357821
504,kourou,5.1552,-52.6478,32.03,53,1,4.27,GF,1722357821
505,nuku'alofa,-21.1333,-175.2,21.19,73,20,5.66,TO,1722357821
506,sandnessjoen,66.0217,12.6316,20.29,63,0,2.06,NO,1722357821
507,bageshwar,29.85,79.7667,25.23,93,90,0.67,IN,1722357613
508,batticaloa,7.7102,81.6924,28.98,66,100,4.27,LK,1722357822
509,kwolla,8.9333,9.2833,26.51,81,100,2.67,NG,1722357822
510,ayr,55.4627,-4.6339,19.06,55,20,5.66,GB,1722357822
511,shangmei,27.7428,111.2956,25.25,90,6,1.01,CN,1722357822
512,canavieiras,-15.675,-38.9472,27.1,61,43,3.24,BR,1722357822
513,san fernando,15.0286,120.6898,26.85,88,96,1.01,PH,1722357822
514,bandon,51.7469,-8.7425,17.77,66,100,1.97,IE,1722357823
515,schwarzenbek,53.5,10.4833,27.39,49,23,0.89,DE,1722357823
516,sola,-13.8833,167.55,25.88,71,54,7.09,VU,1722357823
517,maragogi,-9.0122,-35.2225,26.36,73,6,5.43,BR,1722357658
518,stepnogorsk,52.3544,71.8869,20.54,51,67,2.62,KZ,1722357823
519,banda aceh,5.5577,95.3222,27.58,78,95,5.51,ID,1722357823
520,nyurba,63.2842,118.3319,6.64,81,53,2.33,RU,1722357823
521,haiku-pauwela,20.9219,-156.3051,22.36,94,75,2.57,US,1722357823
522,laguna,38.421,-121.4238,24.43,66,0,2.57,US,1722357600
523,mokhsogollokh,61.4681,128.9203,10.86,71,17,3.26,RU,1722357824
524,cuenca,-2.8833,-78.9833,15.07,72,100,2.06,EC,1722357824
525,holualoa,19.6228,-155.9522,23.26,77,20,4.12,US,1722357824
526,mumbwa,-14.9783,27.0619,21.05,13,5,1.97,ZM,1722357824
527,neya,58.2972,43.8681,16.46,83,100,1.81,RU,1722357824
528,newcastle west,52.4492,-9.0611,21.36,63,100,1.8,IE,1722357824
529,hluti,-27.2167,31.6167,14.92,57,25,3.96,SZ,1722357824
530,leticia,-4.2153,-69.9406,31.03,70,40,2.57,CO,1722357824
531,mastung,29.7994,66.845,26.16,56,99,1.99,PK,1722357824
532,ulsteinvik,62.3432,5.8487,14.62,86,100,2.68,NO,1722357825
533,donggang,28.9365,114.2259,25.45,81,6,0.96,CN,1722357825
534,maine soroa,13.2114,12.0241,35.65,35,38,5.99,NE,1722357825
535,bonga,7.2833,36.2333,16.4,98,99,0.72,ET,1722357825
536,noormarkku,61.5927,21.8685,17.88,77,75,5.14,FI,1722357825
537,maceio,-9.6658,-35.7353,27.69,69,75,5.66,BR,1722357724
538,luwuk,-0.9516,122.7875,21.66,91,93,1.98,ID,1722357825
539,alaghsas,17.0187,8.0168,37.94,27,20,5.14,NE,1722357825
540,minas de marcona,-15.2119,-75.1103,17.1,54,0,5.1,PE,1722357825
541,el hadjira,32.6134,5.5126,39.71,16,0,4.04,DZ,1722357826
542,pavlodar,52.3,76.95,20.89,52,0,0.0,KZ,1722357826
543,katabu,-4.9333,122.5167,23.68,94,24,1.93,ID,1722357826
544,kabwe,-14.4469,28.4464,20.17,17,3,3.13,ZM,1722357826
545,ambodifotatra,-16.9833,49.85,23.76,61,0,1.43,MG,1722357826
546,sierra grande,-41.606,-65.3557,15.11,22,47,8.83,AR,1722357826
547,bundibugyo,0.7414,30.0417,22.37,82,90,1.07,UG,1722357826
548,kununurra,-15.7667,128.7333,22.99,38,79,3.6,AU,1722357826
549,burela de cabo,43.65,-7.4,20.06,87,51,2.19,ES,1722357827
550,yefremov,53.1481,38.0992,16.96,84,51,3.87,RU,1722357827
551,inda silase,14.1031,38.2829,17.22,93,79,1.61,ET,1722357827
552,miches,18.9836,-69.0476,31.11,71,95,4.0,DO,1722357827
553,taoudenni,22.6783,-3.9836,46.83,9,12,2.69,ML,1722357827
554,san fernando de apure,7.8878,-67.4724,27.25,78,93,2.68,VE,1722357827
555,seward,40.907,-97.0989,28.38,41,36,6.72,US,1722357827
556,nadi,-17.8,177.4167,17.0,82,20,2.06,FJ,1722357827
557,lompoc,34.6391,-120.4579,17.08,90,40,1.54,US,1722357827
558,l'alcora,40.0667,-0.2,35.12,17,55,4.08,ES,1722357828
559,emmett,43.8735,-116.4993,22.09,39,87,3.39,US,1722357828
560,namtsy,62.7161,129.6658,9.12,72,94,2.54,RU,1722357828
561,dahab,28.501,34.5134,32.43,45,4,0.65,EG,1722357828
562,piti village,13.4626,144.6933,28.03,88,0,1.54,GU,1722357828
563,coahuayana de hidalgo,18.7,-103.6583,32.38,58,95,1.04,MX,1722357828
564,huarmey,-10.0681,-78.1522,20.23,72,21,4.0,PE,1722357828
565,kailua-kona,19.6406,-155.9956,25.33,81,20,4.12,US,1722357829
566,ormara,25.2088,64.6357,27.89,90,33,7.05,PK,1722357829
567,bassila,9.0081,1.6654,23.84,93,93,1.89,BJ,1722357829
568,vila velha,-20.3297,-40.2925,26.97,71,20,7.72,BR,1722357829
569,howard springs,-12.497,131.047,24.95,79,47,2.06,AU,1722357829
570,puerto gaitan,4.3133,-72.0816,24.25,87,100,1.95,CO,1722358018
571,hirado,33.3597,129.5531,27.95,89,3,4.0,JP,1722358018
572,la ronge,55.1001,-105.2842,21.14,68,100,3.6,CA,1722358018
573,tambopata,-12.7333,-69.1833,24.94,53,0,3.09,PE,1722358018
574,al burayqah,30.4062,19.5739,27.69,76,0,8.52,LY,1722358018
575,monts,47.2772,0.6247,37.35,59,100,3.09,FR,1722358018
576,long beach,33.767,-118.1892,25.1,74,0,2.06,US,1722357944
577,belmonte,-15.8631,-38.8828,26.65,64,37,3.52,BR,1722358019
578,kruisfontein,-34.0033,24.7314,11.6,59,49,6.85,ZA,1722358019
579,gamba,-2.65,10.0,22.82,79,57,3.16,GA,1722358019
580,laghouat,33.8,2.8651,40.13,8,6,10.13,DZ,1722358019
581,tortoli,39.9256,9.6572,32.86,84,20,2.06,IT,1722358019
